[
    {
      "id": "1",
      "naam": "Speeltuin Gijs",
      "latitude": 51.652415,
      "longitude": 5.049207
    },
    {
      "id": "2",
      "naam": "Wagen Gijs",
      "latitude": 51.649599,
      "longitude": 5.047699
    },
    {
      "id": "3",
      "naam": "Baby Gijsje",
      "latitude": 51.653344,
      "longitude": 5.047846
    },
    {
      "id": "4",
      "naam": "Opa Gijs",
      "latitude": 51.650807,
      "longitude": 5.045915
    },
    {
      "id": "5",
      "naam": "Moeder en Tweeling Gijs",
      "latitude": 51.652593,
      "longitude": 5.050228
    },
    {
      "id": "6",
      "naam": "Kapitein Gijs",
      "latitude": 51.647402,
      "longitude": 5.052829
    },
    {
      "id": "7",
      "naam": "Geeuwende Gijs",
      "latitude": 51.651735,
      "longitude": 5.048604
    },
    {
      "id": "8",
      "naam": "Inca Gijs",
      "latitude": 51.647609,
      "longitude": 5.049018
    },
    {
      "id": "9",
      "naam": "Oompje Gijs",
      "latitude": 51.648119,
      "longitude": 5.046776
    },
    {
      "id": "10",
      "naam": "Nijltje in het Tijltje",
      "latitude": 51.651863,
      "longitude": 5.053525
    }
  ]